City_ID,City,Country,Max Temp,Current Description,Lat,Lon,Hotel Name
0,boly,HU,48.88,overcast clouds,45.9672,18.5183,
1,hermanus,ZA,51.91,light rain,-34.4187,19.2345,
3,beshpagir,RU,47.62,clear sky,45.0217,42.3808,
4,yambio,SS,67.05,overcast clouds,4.5721,28.3955,
5,vangaindrano,MG,68.72,broken clouds,-23.35,47.6,
6,khanpur,PK,73.94,clear sky,28.6453,70.6567,
7,rikitea,PF,75.29,overcast clouds,-23.1203,-134.9692,
